[
  {
    "latitude": "37.5461191",
    "longitude": "127.0432655",
    "name": "5to7",
    "description": "수플레가 맛있는 서울숲 카페",
    "type": ["카페", "디저트"],
    "naverId": "1508243090",
    "address": "서울특별시 성동구 서울숲2길 44-13 1층"
  },
  {
    "latitude": "37.5464034",
    "longitude": "127.0437643",
    "name": "모므로살롱",
    "description": "무용 모든 예술을 즐길 수 있는 복합문화공간",
    "type": ["카페", "디저트"],
    "naverId": "1452955482",
    "address": "서울특별시 성동구 서울숲2길 45-1 3층"
  },
  {
    "latitude": "37.5465048",
    "longitude": "127.043467",
    "name": "테디스오븐",
    "description": "무용 모든 예술을 즐길 수 있는 복합문화공간",
    "type": ["카페", "디저트"],
    "naverId": "1239997161",
    "address": "서울특별시 성동구 서울숲2길 43 (성수동1 가) 1층"
  },
  {
    "latitude": "37.5463228",
    "longitude": "127.042963",
    "name": "엘더버거",
    "description": "미국 버거 챔피언이 만든 성수동수제버거",
    "type": ["햄버거"],
    "naverId": "1774193810",
    "address": "서울특별시 성동구 서울숲2길 40-7 1층 엘더버거"
  },
  {
    "latitude": "37.5466281",
    "longitude": "127.042746",
    "name": "퍼먼트",
    "description": "미국 버거 챔피언이 만든 성수동수제버거",
    "type": ["베이커리"],
    "naverId": "1694234920",
    "address": "서울특별시 성동구 서울숲2길 37 1층 , 지하"
  },
  {
    "latitude": "37.5471257",
    "longitude": "127.0418798",
    "name": "구욱희씨",
    "description": "수제쿠키와  디저트가  가득한  서울숲  루프탑  카페",
    "type": ["카페", "디저트"],
    "naverId": "1712521730",
    "address": "서울특별시 성동구 서울숲4길 12-22 1,2층"
  },
  {
    "latitude": "37.5468724",
    "longitude": "127.0412677",
    "name": "어라운드데이",
    "description": "수제쿠키와  디저트가  가득한  서울숲  루프탑  카페",
    "type": ["카페", "디저트"],
    "naverId": "1344027015",
    "address": "서울특별시 성동구 서울숲2길 24-1"
  },
  {
    "latitude": "37.5471662",
    "longitude": "127.0397278",
    "name": "퀸테트",
    "description": "수제쿠키와  디저트가  가득한  서울숲  루프탑  카페",
    "type": ["카페", "디저트"],
    "naverId": "1266915975",
    "address": "서울특별시 성동구 서울숲2길 12-8 1층과 2층"
  },
  {
    "latitude": "37.5478771",
    "longitude": "127.0400156",
    "name": "마크69",
    "description": "서울숲 카페거리 크로플이 맛있는 감성카페",
    "type": ["카페", "디저트"],
    "naverId": "1430646260",
    "address": "서울특별시 성동구 서울숲길 24"
  },
  {
    "latitude": "37.5483638",
    "longitude": "127.0435544",
    "name": "서울앵무새",
    "description": "그릇에 그림 그리는 성수동 신상 카페",
    "type": ["카페", "디저트"],
    "naverId": "1240372795",
    "address": "서울특별시 성동구 서울숲9길 3 B1~2F"
  },
  {
    "latitude": "37.5442015",
    "longitude": "127.0442911",
    "name": "포배럴카페",
    "description": "그릇에 그림 그리는 성수동 신상 카페",
    "type": ["카페", "디저트"],
    "naverId": "1402937642",
    "address": "서울특별시 성동구 왕십리로 83-21 디타워동 1층"
  },
  {
    "latitude": "37.5472719",
    "longitude": "127.0399263",
    "name": "플로이 FLOWY",
    "description": "그릇에 그림 그리는 성수동 신상 카페",
    "type": ["카페", "디저트"],
    "naverId": "1000953231",
    "address": "서울특별시 성동구 서울숲2길 12 1층 FLOWY"
  },
  {
    "latitude": "37.546566",
    "longitude": "127.0423074",
    "name": "쎄콩데live",
    "description": "그릇에 그림 그리는 성수동 신상 카페",
    "type": ["양식"],
    "naverId": "1114922110",
    "address": "서울특별시 성동구 서울숲2길 34 2층"
  },
  {
    "latitude": "37.5465108",
    "longitude": "127.0424585",
    "name": "야드 서울",
    "description": "그릇에 그림 그리는 성수동 신상 카페",
    "type": ["카페", "디저트"],
    "naverId": "1578584646",
    "address": "서울특별시 성동구 서울숲2길 36 2층"
  },
  {
    "latitude": "37.5468753",
    "longitude": "127.0424296",
    "name": "쿠럼블",
    "description": "그릇에 그림 그리는 성수동 신상 카페",
    "type": ["카페", "디저트"],
    "naverId": "1848167408",
    "address": "서울특별시 성동구 서울숲4길 16-25 2층,3층"
  },
  {
    "latitude": "37.5472472",
    "longitude": "127.0395659",
    "name": "리글림",
    "description": "그릇에 그림 그리는 성수동 신상 카페",
    "type": ["카페", "디저트"],
    "naverId": "1677244964",
    "address": "서울특별시 성동구 서울숲2길 8-7 B1"
  },
  {
    "latitude": "37.5468073",
    "longitude": "127.0420036",
    "name": "커먼모티프",
    "description": "그릇에 그림 그리는 성수동 신상 카페",
    "type": ["카페", "디저트"],
    "naverId": "1718420274",
    "address": "서울특별시 성동구 서울숲2길 29 2층"
  },
  {
    "latitude": "37.5467551",
    "longitude": "127.0412593",
    "name": "마야마야 북 & 라이프 카페",
    "description": "그릇에 그림 그리는 성수동 신상 카페",
    "type": ["카페", "디저트"],
    "naverId": "1197323511",
    "address": "서울특별시 성동구 서울숲2길 24-7 1, 2층"
  },
  {
    "latitude": "37.5461816",
    "longitude": "127.0428893",
    "name": "코츠카페",
    "description": "그릇에 그림 그리는 성수동 신상 카페",
    "type": ["카페", "디저트"],
    "naverId": "1254931943",
    "address": "서울특별시 성동구 서울숲2길 40-11"
  },
  {
    "latitude": "37.5468016",
    "longitude": "127.0410577",
    "name": "에펜즈",
    "description": "그릇에 그림 그리는 성수동 신상 카페",
    "type": ["베이커리"],
    "naverId": "82935618",
    "address": "서울특별시 성동구 서울숲2길 24-8 1층"
  },
  {
    "latitude": "37.5478918",
    "longitude": "127.041863",
    "name": "카페 차 성수점",
    "description": "전참시 이영자 달고나밀크티로 유명한 성수카페",
    "type": ["카페", "디저트"],
    "naverId": "1203115921",
    "address": "서울특별시 성동구 서울숲6길 2 1층"
  },
  {
    "latitude": "37.5472525",
    "longitude": "127.0394434",
    "name": "라프레플루트",
    "description": "전참시 이영자 달고나밀크티로 유명한 성수카페",
    "type": ["카페", "디저트"],
    "naverId": "1966521856",
    "address": "서울특별시 성동구 서울숲2길 8-8 2층"
  },
  {
    "latitude": "37.5483896",
    "longitude": "127.042649",
    "name": "카멜커피 7호점",
    "description": "전참시 이영자 달고나밀크티로 유명한 성수카페",
    "type": ["카페", "디저트"],
    "naverId": "1353346572",
    "address": "서울특별시 성동구 서울숲7길 4 카멜커피"
  },
  {
    "latitude": "37.5479055",
    "longitude": "127.0416995",
    "name": "로우포레스트",
    "description": "전참시 이영자 달고나밀크티로 유명한 성수카페",
    "type": ["카페", "디저트"],
    "naverId": "1019405388",
    "address": "서울특별시 성동구 서울숲길 38 1층"
  },
  {
    "latitude": "37.5479351",
    "longitude": "127.0432039",
    "name": "티룸",
    "description": "밀크티와 치즈케이크가 맛있는 성수동 카페",
    "type": ["카페", "디저트"],
    "naverId": "1060006624",
    "address": "서울특별시 성동구 서울숲길 52 1층"
  },
  {
    "latitude": "37.5477527",
    "longitude": "127.043746",
    "name": "시슬러스",
    "description": "밀크티와 치즈케이크가 맛있는 성수동 카페",
    "type": ["카페", "디저트"],
    "naverId": "1121816274",
    "address": "서울특별시 성동구 왕십리로5길 19 1층 시슬러스"
  },
  {
    "latitude": "37.5468175",
    "longitude": "127.0429973",
    "name": "샌드카베",
    "description": "밀크티와 치즈케이크가 맛있는 성수동 카페",
    "type": ["카페", "디저트"],
    "naverId": "1610448119",
    "address": "서울특별시 성동구 서울숲4길 22-18 1층 카페"
  },
  {
    "latitude": "37.5474333",
    "longitude": "127.0433921",
    "name": "봉땅 서울숲점",
    "description": "밀크티와 치즈케이크가 맛있는 성수동 카페",
    "type": ["베이커리"],
    "naverId": "1700801654",
    "address": "서울특별시 성동구 서울숲6길 16-1 1층 봉땅"
  },
  {
    "latitude": "37.5475252",
    "longitude": "127.0430066",
    "name": "시즈니",
    "description": "밀크티와 치즈케이크가 맛있는 성수동 카페",
    "type": ["카페", "디저트"],
    "naverId": "1388756141",
    "address": "서울특별시 성동구 서울숲6길 14 거암아트빌라 2층 201호"
  },
  {
    "latitude": "37.5469156",
    "longitude": "127.041112",
    "name": "LOWIDE",
    "description": "밀크티와 치즈케이크가 맛있는 성수동 카페",
    "type": ["카페", "디저트"],
    "naverId": "1687687205",
    "address": "서울특별시 성동구 서울숲2길 22-1"
  },
  {
    "latitude": "37.5469644",
    "longitude": "127.0401552",
    "name": "스코브",
    "description": "밀크티와 치즈케이크가 맛있는 성수동 카페",
    "type": ["카페"],
    "naverId": "1264704134",
    "address": "서울특별시 성동구 서울숲2길 16-12 1층"
  },
  {
    "latitude": "37.5472719",
    "longitude": "127.0433427",
    "name": "카페요아정",
    "description": "밀크티와 치즈케이크가 맛있는 성수동 카페",
    "type": ["카페", "디저트"],
    "naverId": "1862026206",
    "address": "서울특별시 성동구 서울숲4길 21 지하1층"
  },
  {
    "latitude": "37.5465605",
    "longitude": "127.0465615",
    "name": "미디엄스톤 성수점",
    "description": "밀크티와 치즈케이크가 맛있는 성수동 카페",
    "type": ["카페", "디저트"],
    "naverId": "1477788445",
    "address": "서울특별시 성동구 왕십리로10길 18-1 1.5층 미디엄스톤"
  },
  {
    "latitude": "37.5458643",
    "longitude": "127.0459858",
    "name": "티케",
    "description": "밀크티와 치즈케이크가 맛있는 성수동 카페",
    "type": ["카페", "디저트"],
    "naverId": "1049076059",
    "address": "서울특별시 성동구 왕십리로4길 12"
  },
  {
    "latitude": "37.5418402",
    "longitude": "127.0484436",
    "name": "아이아이알",
    "description": "밀크티와 치즈케이크가 맛있는 성수동 카페",
    "type": ["카페", "디저트"],
    "naverId": "1270448451",
    "address": "서울특별시 성동구 성수일로 13"
  },
  {
    "latitude": "37.5469919",
    "longitude": "127.0493056",
    "name": "레이어10 카페",
    "description": "밀크티와 치즈케이크가 맛있는 성수동 카페",
    "type": ["카페", "디저트"],
    "naverId": "1116217742",
    "address": "서울특별시 성동구 상원4길 10 레이어 10"
  },
  {
    "latitude": "37.5391934",
    "longitude": "127.0548934",
    "name": "로스터리 노드",
    "description": "밀크티와 치즈케이크가 맛있는 성수동 카페",
    "type": ["카페", "디저트"],
    "naverId": "1667584741",
    "address": "서울특별시 성동구 성수이로 45 노란색 문 지하"
  },
  {
    "latitude": "37.5430356",
    "longitude": "127.0469759",
    "name": "히즈빈스 성수점",
    "description": "최상의 커피를 만날 수 있는 성수카페",
    "type": ["카페"],
    "naverId": "1103507675",
    "address": "서울특별시 성동구 왕십리로2길 20 1층 (성수동1가)"
  },
  {
    "latitude": "37.5421944",
    "longitude": "127.0468137",
    "name": "오카보카",
    "description": "최상의 커피를 만날 수 있는 성수카페",
    "type": ["카페", "디저트"],
    "naverId": "1486147948",
    "address": "서울특별시 성동구 성수일로1길 18 지하1층"
  },
  {
    "latitude": "37.5413672",
    "longitude": "127.046259",
    "name": "카페 스밍 스튜디오",
    "description": "최상의 커피를 만날 수 있는 성수카페",
    "type": ["다이어트", "샐러드"],
    "naverId": "1413887734",
    "address": "서울특별시 성동구 뚝섬로 317"
  },
  {
    "latitude": "37.5408062",
    "longitude": "127.0479102",
    "name": "밋보어 카페 & 이터리 by 에디션덴마크",
    "description": "최상의 커피를 만날 수 있는 성수카페",
    "type": ["양식"],
    "naverId": "1780958638",
    "address": "서울특별시 성동구 성수일로 1 1층"
  },
  {
    "latitude": "37.542161",
    "longitude": "127.0522089",
    "name": "도토루커피os",
    "description": "최상의 커피를 만날 수 있는 성수카페",
    "type": ["카페", "디저트"],
    "naverId": "37049427",
    "address": "서울특별시 성동구 성수일로4길 31-1 1층"
  },
  {
    "latitude": "37.5460779",
    "longitude": "127.0595824",
    "name": "코끼리베이글 성수",
    "description": "최상의 커피를 만날 수 있는 성수카페",
    "type": ["베이커리"],
    "naverId": "1543901744",
    "address": "서울특별시 성동구 성수이로26길 17 (성수동2가) 1층"
  },
  {
    "latitude": "37.5395631",
    "longitude": "127.0476455",
    "name": "블루너리",
    "description": "최상의 커피를 만날 수 있는 성수카페",
    "type": ["카페", "디저트"],
    "naverId": "1248117249",
    "address": "서울특별시 성동구 성덕정3길 8 1층 103호(성수동1가)bluenery"
  },
  {
    "latitude": "37.5385478",
    "longitude": "127.0482807",
    "name": "조프리케이크",
    "description": "최상의 커피를 만날 수 있는 성수카페",
    "type": ["케이크전문"],
    "naverId": "1072526830",
    "address": "서울특별시 성동구 성덕정길 42 1층"
  },
  {
    "latitude": "37.539493",
    "longitude": "127.0501435",
    "name": "후프커피",
    "description": "최상의 커피를 만날 수 있는 성수카페",
    "type": ["카페", "디저트"],
    "naverId": "1012485216",
    "address": "서울특별시 성동구 성덕정9가길 2"
  },
  {
    "latitude": "37.5389976",
    "longitude": "127.0475584",
    "name": "투테일스",
    "description": "최상의 커피를 만날 수 있는 성수카페",
    "type": ["동물사료제조"],
    "naverId": "1380625318",
    "address": "서울특별시 성동구 성덕정길 33 1층"
  },
  {
    "latitude": "37.5388806",
    "longitude": "127.0513112",
    "name": "낫저스트북스",
    "description": "최상의 커피를 만날 수 있는 성수카페",
    "type": ["독립서점"],
    "naverId": "1025254272",
    "address": "서울특별시 성동구 성덕정9가길 14 1층(성수동1가)"
  },
  {
    "latitude": "37.5375183",
    "longitude": "127.0536389",
    "name": "유니버스 스튜디오",
    "description": "최상의 커피를 만날 수 있는 성수카페",
    "type": ["카페", "디저트"],
    "naverId": "1058049875",
    "address": "서울특별시 성동구 성덕정길 92 지하1층 핑크색문"
  },
  {
    "latitude": "37.5389408",
    "longitude": "127.0532019",
    "name": "베티버 성수",
    "description": "최상의 커피를 만날 수 있는 성수카페",
    "type": ["카페", "디저트"],
    "naverId": "1383256753",
    "address": "서울특별시 성동구 성덕정11길 18 1층"
  },
  {
    "latitude": "37.5366634",
    "longitude": "127.0550426",
    "name": "어페어커피",
    "description": "최상의 커피를 만날 수 있는 성수카페",
    "type": ["카페", "디저트"],
    "naverId": "1863706992",
    "address": "서울특별시 성동구 성수이로6길 11 1층 어페어 커피"
  },
  {
    "latitude": "37.5351392",
    "longitude": "127.0554911",
    "name": "HBC coffee",
    "description": "최상의 커피를 만날 수 있는 성수카페",
    "type": ["카페", "디저트"],
    "naverId": "1023169214",
    "address": "서울특별시 성동구 둘레15길 4-1 1층(성수동2가)"
  },
  {
    "latitude": "37.5367679",
    "longitude": "127.0574947",
    "name": "후피커피",
    "description": "최상의 커피를 만날 수 있는 성수카페",
    "type": ["카페", "디저트"],
    "naverId": "1441035633",
    "address": "서울특별시 성동구 성덕정길 127 선빌딩 1층 108호"
  },
  {
    "latitude": "37.5375607",
    "longitude": "127.055383",
    "name": "럭럭카페",
    "description": "최상의 커피를 만날 수 있는 성수카페",
    "type": ["카페", "디저트"],
    "naverId": "1168976634",
    "address": "서울특별시 성동구 성덕정17길 4 1층"
  },
  {
    "latitude": "37.5487846",
    "longitude": "127.0558541",
    "name": "카페온유",
    "description": "최상의 커피를 만날 수 있는 성수카페",
    "type": ["카페", "디저트"],
    "naverId": "1169957780",
    "address": "서울특별시 성동구 아차산로7길 42-1 1층"
  },
  {
    "latitude": "37.539183",
    "longitude": "127.0616943",
    "name": "리브릭",
    "description": "꼬숩꼬숩 시그니처 라떼가 맛있는 성수동 카페",
    "type": ["카페", "디저트"],
    "naverId": "1424869222",
    "address": "서울특별시 성동구 뚝섬로15길 29 1층"
  },
  {
    "latitude": "37.5386087",
    "longitude": "127.0564215",
    "name": "BBC",
    "description": "꼬숩꼬숩 시그니처 라떼가 맛있는 성수동 카페",
    "type": ["카페", "디저트"],
    "naverId": "1428046376",
    "address": "서울특별시 성동구 뚝섬로 413 1층 브로벨커피"
  },
  {
    "latitude": "37.5483721",
    "longitude": "127.0531618",
    "name": "예셰숄",
    "description": "꼬숩꼬숩 시그니처 라떼가 맛있는 성수동 카페",
    "type": ["카페", "디저트"],
    "naverId": "1984160681",
    "address": "서울특별시 성동구 성수일로12길 18-1 1층"
  },
  {
    "latitude": "37.5396694",
    "longitude": "127.0564402",
    "name": "위스위츠",
    "description": "꼬숩꼬숩 시그니처 라떼가 맛있는 성수동 카페",
    "type": ["카페", "디저트"],
    "naverId": "1431014542",
    "address": "서울특별시 성동구 뚝섬로9길 16"
  },
  {
    "latitude": "37.5402134",
    "longitude": "127.060268",
    "name": "베르두레 성수점",
    "description": "꼬숩꼬숩 시그니처 라떼가 맛있는 성수동 카페",
    "type": ["브런치"],
    "naverId": "1865182891",
    "address": "서울특별시 성동구 성수이로16길 33 3층, 4층"
  },
  {
    "latitude": "37.5411749",
    "longitude": "127.0610122",
    "name": "프롤라",
    "description": "꼬숩꼬숩 시그니처 라떼가 맛있는 성수동 카페",
    "type": ["카페", "디저트"],
    "naverId": "1399503871",
    "address": "서울특별시 성동구 연무장17길 5 1층"
  },
  {
    "latitude": "37.5431344",
    "longitude": "127.0638288",
    "name": "뿐또블루",
    "description": "꼬숩꼬숩 시그니처 라떼가 맛있는 성수동 카페",
    "type": ["복합문화공간"],
    "naverId": "1197968655",
    "address": "서울특별시 성동구 성수이로22길 61 1층"
  },
  {
    "latitude": "37.5419502",
    "longitude": "127.047779",
    "name": "이오커피로스터스",
    "description": "꼬숩꼬숩 시그니처 라떼가 맛있는 성수동 카페",
    "type": ["카페"],
    "naverId": "1757576995",
    "address": "서울특별시 성동구 뚝섬로1가길 27 1층, 지하1층"
  },
  {
    "latitude": "37.5486571",
    "longitude": "127.0653779",
    "name": "무경계",
    "description": "꼬숩꼬숩 시그니처 라떼가 맛있는 성수동 카페",
    "type": ["카페", "디저트"],
    "naverId": "1314540555",
    "address": "서울특별시 성동구 광나루로11길 3-1 1층"
  },
  {
    "latitude": "37.5440759",
    "longitude": "127.0607134",
    "name": "성수동 리얼 로스팅 커피&디저트",
    "description": "꼬숩꼬숩 시그니처 라떼가 맛있는 성수동 카페",
    "type": ["카페", "디저트"],
    "naverId": "1190505473",
    "address": "서울특별시 성동구 성수이로22길 31"
  },
  {
    "latitude": "37.5434305",
    "longitude": "127.0606837",
    "name": "코트사이드",
    "description": "꼬숩꼬숩 시그니처 라떼가 맛있는 성수동 카페",
    "type": ["카페", "디저트"],
    "naverId": "1471112751",
    "address": "서울특별시 성동구 아차산로13길 2 3F"
  },
  {
    "latitude": "37.5457468",
    "longitude": "127.0601825",
    "name": "마르코웤스",
    "description": "바닐라라떼가 맛있는 성수카페",
    "type": ["카페", "디저트"],
    "naverId": "1320654683",
    "address": "서울특별시 성동구 아차산로11길 26"
  },
  {
    "latitude": "37.5449378",
    "longitude": "127.059447",
    "name": "카페조이",
    "description": "바닐라라떼가 맛있는 성수카페",
    "type": ["카페"],
    "naverId": "32812333",
    "address": "서울특별시 성동구 아차산로11길 11 105호"
  },
  {
    "latitude": "37.5439433",
    "longitude": "127.058967",
    "name": "에이투비 Cafe&Bar",
    "description": "홍준이 운영하는 분위기 좋은 신상 카페",
    "type": ["카페", "디저트"],
    "naverId": "1537971823",
    "address": "서울특별시 성동구 아차산로 135 2층"
  },
  {
    "latitude": "37.5446846",
    "longitude": "127.0584609",
    "name": "봇봇봇",
    "description": "홍준이 운영하는 분위기 좋은 신상 카페",
    "type": ["카페", "디저트"],
    "naverId": "1343525582",
    "address": "서울특별시 성동구 아차산로9길 8"
  },
  {
    "latitude": "37.5410955",
    "longitude": "127.0591919",
    "name": "테니",
    "description": "홍준이 운영하는 분위기 좋은 신상 카페",
    "type": ["베이커리"],
    "naverId": "1965277191",
    "address": "서울특별시 성동구 뚝섬로17가길 55 1층"
  },
  {
    "latitude": "37.541156",
    "longitude": "127.0590119",
    "name": "디플랫 성수",
    "description": "홍준이 운영하는 분위기 좋은 신상 카페",
    "type": ["카페", "디저트"],
    "naverId": "1886226302",
    "address": "서울특별시 성동구 연무장길 90 1층"
  },
  {
    "latitude": "37.5417012",
    "longitude": "127.0582575",
    "name": "러프러프",
    "description": "홍준이 운영하는 분위기 좋은 신상 카페",
    "type": ["카페", "디저트"],
    "naverId": "1829908685",
    "address": "서울특별시 성동구 연무장길 81 401호"
  },
  {
    "latitude": "37.5419719",
    "longitude": "127.0580088",
    "name": "업사이드커피",
    "description": "존맛탱 브라운치즈 크로플 파는 곳",
    "type": ["카페", "디저트"],
    "naverId": "1259420360",
    "address": "서울특별시 성동구 연무장13길 3"
  },
  {
    "latitude": "37.5459916",
    "longitude": "127.0460565",
    "name": "파머스카페",
    "description": "좋은 아늑하고 고양이가 있는곳",
    "type": ["카페", "디저트"],
    "naverId": "37471718",
    "address": "서울특별시 성동구 왕십리로6길 11 1층"
  },
  {
    "latitude": "37.5427497",
    "longitude": "127.0594028",
    "name": "클라스카커피랩",
    "description": "좋은 아늑하고 고양이가 있는곳",
    "type": ["카페", "디저트"],
    "naverId": "1685075323",
    "address": "서울특별시 성동구 연무장15길 11 에스팩토리 B동 303호 루프탑까페"
  },
  {
    "latitude": "37.5426174",
    "longitude": "127.0593037",
    "name": "FIKA DELI",
    "description": "좋은 아늑하고 고양이가 있는곳",
    "type": ["카페", "디저트"],
    "naverId": "1385396481",
    "address": "서울특별시 성동구 연무장15길 11 에스팩토리 B동 105호"
  },
  {
    "latitude": "37.54166",
    "longitude": "127.056862",
    "name": "천상가옥",
    "description": "좋은 아늑하고 고양이가 있는곳",
    "type": ["카페", "디저트"],
    "naverId": "1071830988",
    "address": "서울특별시 성동구 성수이로14길 14 A동 3층"
  },
  {
    "latitude": "37.54166",
    "longitude": "127.056862",
    "name": "메이플탑",
    "description": "네이버 주문 어워즈 2022",
    "type": ["브런치"],
    "naverId": "1184862139",
    "address": "서울특별시 성동구 성수이로14길 14 성수연방 A동 2층"
  },
  {
    "latitude": "37.5411287",
    "longitude": "127.0548536",
    "name": "카페 할아버지공장",
    "description": "네이버 주문 어워즈 2022",
    "type": ["카페", "디저트"],
    "naverId": "1425989301",
    "address": "서울특별시 성동구 성수이로7가길 9"
  },
  {
    "latitude": "37.5401884",
    "longitude": "127.0601929",
    "name": "뵈르에코",
    "description": "네이버 주문 어워즈 2022",
    "type": ["브런치카페"],
    "naverId": "1781253700",
    "address": "서울특별시 성동구 성수이로16길 33 1층, 지하1층"
  },
  {
    "latitude": "37.5419767",
    "longitude": "127.0560466",
    "name": "오색칠",
    "description": "네이버 주문 어워즈 2022",
    "type": ["카페", "디저트"],
    "naverId": "1896147371",
    "address": "서울특별시 성동구 성수이로 77 1층"
  },
  {
    "latitude": "37.5415748",
    "longitude": "127.0534199",
    "name": "코스모스상점",
    "description": "애견 동반 입장이 가능한 성수동 카페",
    "type": ["카페", "디저트"],
    "naverId": "36905757",
    "address": "서울특별시 성동구 성수이로7길 27 서울숲코오롱디지탈타워 1층"
  },
  {
    "latitude": "37.542302",
    "longitude": "127.0538329",
    "name": "문화식당",
    "description": "애견 동반 입장이 가능한 성수동 카페",
    "type": ["요리주점"],
    "naverId": "1282228632",
    "address": "서울특별시 성동구 성수일로4길 45 2층 문화식당"
  },
  {
    "latitude": "37.5436216",
    "longitude": "127.0527485",
    "name": "오프커피",
    "description": "성수동 귀여운 카페 5ff커피",
    "type": ["카페", "디저트"],
    "naverId": "1921874344",
    "address": "서울특별시 성동구 연무장길 29-17 1F 오프커피"
  },
  {
    "latitude": "37.5436442",
    "longitude": "127.0540539",
    "name": "레이더",
    "description": "성수동 귀여운 카페 5ff커피",
    "type": ["카페", "디저트"],
    "naverId": "1525007973",
    "address": "서울특별시 성동구 연무장길 39-29 레이더"
  },
  {
    "latitude": "37.5431298",
    "longitude": "127.053342",
    "name": "먼치스앤구디스",
    "description": "성수동 귀여운 카페 5ff커피",
    "type": ["식료품"],
    "naverId": "1360489155",
    "address": "서울특별시 성동구 연무장길 33 1층"
  },
  {
    "latitude": "37.542505",
    "longitude": "127.0518658",
    "name": "라스베이글 성수점",
    "description": "성수동 귀여운 카페 5ff커피",
    "type": ["카페"],
    "naverId": "1173495456",
    "address": "서울특별시 성동구 성수일로4길 25 서울숲코오롱디지털타워1차 107호"
  },
  {
    "latitude": "37.5429971",
    "longitude": "127.0522387",
    "name": "타임애프터타임",
    "description": "포토존 가득한 갤러리 느낌 성수 핫한 카페",
    "type": ["카페", "디저트"],
    "naverId": "1675458615",
    "address": "서울특별시 성동구 연무장길 28-16 1-2층"
  },
  {
    "latitude": "37.5448952",
    "longitude": "127.0534542",
    "name": "쎈느Scene",
    "description": "아트갤러리를 연상케하는 성수동카페",
    "type": ["카페", "디저트"],
    "naverId": "1030871168",
    "address": "서울특별시 성동구 연무장5길 20 1F Scène"
  },
  {
    "latitude": "37.5443627",
    "longitude": "127.052609",
    "name": "BNHR",
    "description": "라떼가 맛있는 성수동 카페",
    "type": ["카페", "디저트"],
    "naverId": "1223354536",
    "address": "서울특별시 성동구 연무장5길 9-16 1층"
  },
  {
    "latitude": "37.5434952",
    "longitude": "127.0515535",
    "name": "KANTO",
    "description": "무채색 흑백카페로 유명한 성수카페",
    "type": ["카페"],
    "naverId": "1200806667",
    "address": "서울특별시 성동구 연무장길 20"
  },
  {
    "latitude": "37.5438083",
    "longitude": "127.0510516",
    "name": "MYC CAFE",
    "description": "무채색 흑백카페로 유명한 성수카페",
    "type": ["카페", "디저트"],
    "naverId": "1539183228",
    "address": "서울특별시 성동구 연무장길 13 1층"
  },
  {
    "latitude": "37.5439551",
    "longitude": "127.0510262",
    "name": "냐항",
    "description": "무채색 흑백카페로 유명한 성수카페",
    "type": ["베트남음식"],
    "naverId": "1009935289",
    "address": "서울특별시 성동구 연무장길 9-6 1층 냐항"
  },
  {
    "latitude": "37.5438452",
    "longitude": "127.0504194",
    "name": "윈야드 성수",
    "description": "무채색 흑백카페로 유명한 성수카페",
    "type": ["브런치"],
    "naverId": "1928712229",
    "address": "서울특별시 성동구 연무장길 8-1"
  },
  {
    "latitude": "37.5443374",
    "longitude": "127.0498313",
    "name": "스프레이",
    "description": "무채색 흑백카페로 유명한 성수카페",
    "type": ["카페", "디저트"],
    "naverId": "1300253897",
    "address": "서울특별시 성동구 성수일로 44-1 건물 뒷편 1층 카페 스프레이"
  },
  {
    "latitude": "37.5447309",
    "longitude": "127.0504693",
    "name": "공간 와디즈",
    "description": "크라우드 펀딩을 오프라인으로 만나볼 수 있는 곳",
    "type": ["복합문화공간"],
    "naverId": "1005383466",
    "address": "서울특별시 성동구 연무장1길 7-1"
  },
  {
    "latitude": "37.5442371",
    "longitude": "127.0513818",
    "name": "앤드밀 성수점",
    "description": "뚝섬역 골목에 숨어있는 브런치맛집",
    "type": ["브런치"],
    "naverId": "1943210266",
    "address": "서울특별시 성동구 연무장3길 5-1 3층"
  },
  {
    "latitude": "37.5444893",
    "longitude": "127.0511271",
    "name": "르베지왕",
    "description": "뚝섬역 골목에 숨어있는 브런치맛집",
    "type": ["다이어트", "샐러드"],
    "naverId": "1875562479",
    "address": "서울특별시 성동구 연무장1길 15-1 1층"
  },
  {
    "latitude": "37.5446177",
    "longitude": "127.051389",
    "name": "피치스 도원",
    "description": "뚝섬역 골목에 숨어있는 브런치맛집",
    "type": ["복합문화공간"],
    "naverId": "1034551875",
    "address": "서울특별시 성동구 연무장3길 9 피치스 도원"
  },
  {
    "latitude": "37.5442014",
    "longitude": "127.0515894",
    "name": "로우키",
    "description": "뚝섬역 골목에 숨어있는 브런치맛집",
    "type": ["카페"],
    "naverId": "1393890643",
    "address": "서울특별시 성동구 연무장3길 6 1층, B1층"
  },
  {
    "latitude": "37.545552",
    "longitude": "127.0534225",
    "name": "플럼프",
    "description": "뚝섬역 골목에 숨어있는 브런치맛집",
    "type": ["카페", "디저트"],
    "naverId": "1196593317",
    "address": "서울특별시 성동구 아차산로 83 1층"
  },
  {
    "latitude": "37.5457815",
    "longitude": "127.0549731",
    "name": "이트앤드링크",
    "description": "뚝섬역 골목에 숨어있는 브런치맛집",
    "type": ["카페", "디저트"],
    "naverId": "1483166635",
    "address": "서울특별시 성동구 성수일로8길 39-1 이트앤드링크"
  },
  {
    "latitude": "37.5454447",
    "longitude": "127.0503205",
    "name": "무브모브",
    "description": "컨셉의 시그니처 메뉴가 있는 성수동 카페",
    "type": ["카페", "디저트"],
    "naverId": "1859537881",
    "address": "서울특별시 성동구 성수일로 56"
  },
  {
    "latitude": "37.5485536",
    "longitude": "127.0623262",
    "name": "비가나",
    "description": "컨셉의 시그니처 메뉴가 있는 성수동 카페",
    "type": ["카페", "디저트"],
    "naverId": "1774196293",
    "address": "서울특별시 성동구 송정길 22 송림빌1층 비가나"
  },
  {
    "latitude": "37.5396881",
    "longitude": "127.0474243",
    "name": "복식커피",
    "description": "컨셉의 시그니처 메뉴가 있는 성수동 카페",
    "type": ["카페", "디저트"],
    "naverId": "1563091642",
    "address": "서울특별시 성동구 성덕정3길 7-1 1층"
  },
  {
    "latitude": "37.5367641",
    "longitude": "127.0541384",
    "name": "글리터",
    "description": "컨셉의 시그니처 메뉴가 있는 성수동 카페",
    "type": ["카페", "디저트"],
    "naverId": "1973759403",
    "address": "서울특별시 성동구 성수이로 18 글리터"
  },
  {
    "latitude": "37.5414438",
    "longitude": "127.0492647",
    "name": "Naked Coffee",
    "description": "컨셉의 시그니처 메뉴가 있는 성수동 카페",
    "type": ["카페"],
    "naverId": "1464370445",
    "address": "서울특별시 성동구 뚝섬로3길 13"
  },
  {
    "latitude": "37.5396452",
    "longitude": "127.0572737",
    "name": "위드번",
    "description": "컨셉의 시그니처 메뉴가 있는 성수동 카페",
    "type": ["햄버거"],
    "naverId": "1513789352",
    "address": "서울특별시 성동구 성수이로12길 17-1 1층"
  },
  {
    "latitude": "37.5372564",
    "longitude": "127.0558906",
    "name": "카멜커피 성수점",
    "description": "가성비와 차별화를 더한 카멜 하이파이",
    "type": ["카페", "디저트"],
    "naverId": "55585656",
    "address": "서울특별시 성동구 성덕정19길 6 1층"
  },
  {
    "latitude": "37.5436339",
    "longitude": "127.0510917",
    "name": "래뮤",
    "description": "가성비와 차별화를 더한 카멜 하이파이",
    "type": ["카페", "디저트"],
    "naverId": "1076715606",
    "address": "서울특별시 성동구 연무장길 14 2층(성수동1가)"
  },
  {
    "latitude": "37.5391561",
    "longitude": "127.0567594",
    "name": "APPP",
    "description": "가성비와 차별화를 더한 카멜 하이파이",
    "type": ["카페", "디저트"],
    "naverId": "1082720957",
    "address": "서울특별시 성동구 뚝섬로9길 10"
  },
  {
    "latitude": "37.5416761",
    "longitude": "127.0546336",
    "name": "더블하이트 갤러리카페",
    "description": "가성비와 차별화를 더한 카멜 하이파이",
    "type": ["카페", "디저트"],
    "naverId": "1261104536",
    "address": "서울특별시 성동구 성수일로4가길 10 1층, 2층"
  },
  {
    "latitude": "37.5380687",
    "longitude": "127.0510589",
    "name": "사이드템포",
    "description": "가성비와 차별화를 더한 카멜 하이파이",
    "type": ["카페", "디저트"],
    "naverId": "1961050470",
    "address": "서울특별시 성동구 성덕정길 67"
  },
  {
    "latitude": "37.542035",
    "longitude": "127.0540545",
    "name": "창창커피",
    "description": "가성비와 차별화를 더한 카멜 하이파이",
    "type": ["카페"],
    "naverId": "1005128677",
    "address": "서울특별시 성동구 성수일로4가길 2 1층 창창커피"
  },
  {
    "latitude": "37.5407391",
    "longitude": "127.0595237",
    "name": "레이지 요거트",
    "description": "가성비와 차별화를 더한 카멜 하이파이",
    "type": ["카페", "디저트"],
    "naverId": "1308949721",
    "address": "서울특별시 성동구 뚝섬로17가길 48 성수에이원지식산업센터 104호"
  },
  {
    "latitude": "37.5423327",
    "longitude": "127.0471822",
    "name": "치카성수",
    "description": "가성비와 차별화를 더한 카멜 하이파이",
    "type": ["케이크전문"],
    "naverId": "37191703",
    "address": "서울특별시 성동구 뚝섬로1가길 14 1층"
  },
  {
    "latitude": "37.5456999",
    "longitude": "127.0485128",
    "name": "펌킨 펫하우스 서울숲점",
    "description": "가성비와 차별화를 더한 카멜 하이파이",
    "type": ["애견카페"],
    "naverId": "1301354997",
    "address": "서울특별시 성동구 상원1길 22 1층 102호"
  },
  {
    "latitude": "37.5473634",
    "longitude": "127.062474",
    "name": "카페크라비",
    "description": "가성비와 차별화를 더한 카멜 하이파이",
    "type": ["카페"],
    "naverId": "1872719083",
    "address": "서울특별시 성동구 아차산로13길 48 1층"
  },
  {
    "latitude": "37.539768",
    "longitude": "127.0614445",
    "name": "코에오 COEO",
    "description": "가성비와 차별화를 더한 카멜 하이파이",
    "type": ["카페", "디저트"],
    "naverId": "1074798383",
    "address": "서울특별시 성동구 성수이로16길 45 . 1층"
  },
  {
    "latitude": "37.5465728",
    "longitude": "127.0539961",
    "name": "라에비뉴",
    "description": "가성비와 차별화를 더한 카멜 하이파이",
    "type": ["카페", "디저트"],
    "naverId": "1199055314",
    "address": "서울특별시 성동구 성수일로10길 33 1층 103호"
  },
  {
    "latitude": "37.5497523",
    "longitude": "127.0560021",
    "name": "기와르",
    "description": "가성비와 차별화를 더한 카멜 하이파이",
    "type": ["카페"],
    "naverId": "1273097610",
    "address": "서울특별시 성동구 광나루로 233 2층"
  },
  {
    "latitude": "37.5429356",
    "longitude": "127.0552214",
    "name": "데어데이아",
    "description": "가성비와 차별화를 더한 카멜 하이파이",
    "type": ["종합도소매"],
    "naverId": "1219283463",
    "address": "서울특별시 성동구 연무장7가길 8"
  },
  {
    "latitude": "37.538687",
    "longitude": "127.0567737",
    "name": "하우트제곱",
    "description": "가성비와 차별화를 더한 카멜 하이파이",
    "type": ["카페", "디저트"],
    "naverId": "1824541032",
    "address": "서울특별시 성동구 뚝섬로9길 3-1 1층"
  },
  {
    "latitude": "37.5410827",
    "longitude": "127.0604515",
    "name": "오우드 성수1호점",
    "description": "커피와 향기가 있는 성수동 통유리 카페",
    "type": ["카페", "디저트"],
    "naverId": "1833313793",
    "address": "서울특별시 성동구 연무장길 101-1"
  },
  {
    "latitude": "37.5441026",
    "longitude": "127.0619229",
    "name": "오우드 성수2호점",
    "description": "커피와 향기가 있는 성수동 통유리 카페",
    "type": ["카페", "디저트"],
    "naverId": "1216172292",
    "address": "서울특별시 성동구 성수이로24길 36 2층"
  },
  {
    "latitude": "37.5467333",
    "longitude": "127.0546757",
    "name": "삼옥",
    "description": "커피와 향기가 있는 성수동 통유리 카페",
    "type": ["카페", "디저트"],
    "naverId": "1297713401",
    "address": "서울특별시 성동구 아차산로7길 17-1 3층"
  },
  {
    "latitude": "37.5465999",
    "longitude": "127.0653553",
    "name": "오엔엘",
    "description": "커피와 향기가 있는 성수동 통유리 카페",
    "type": ["브런치"],
    "naverId": "1492433555",
    "address": "서울특별시 성동구 아차산로17길 49 108, 109호"
  },
  {
    "latitude": "37.5434597",
    "longitude": "127.0566332",
    "name": "카페 스트랏",
    "description": "커피와 향기가 있는 성수동 통유리 카페",
    "type": ["카페", "디저트"],
    "naverId": "1410613160",
    "address": "서울특별시 성동구 성수이로 93 1층 카페 straat"
  },
  {
    "latitude": "37.5415794",
    "longitude": "127.0604134",
    "name": "pdbb",
    "description": "커피와 향기가 있는 성수동 통유리 카페",
    "type": ["카페", "디저트"],
    "naverId": "1334549901",
    "address": "서울특별시 성동구 성수이로18길 32 1층"
  },
  {
    "latitude": "37.5451699",
    "longitude": "127.0486807",
    "name": "카야네",
    "description": "커피와 향기가 있는 성수동 통유리 카페",
    "type": ["카페", "디저트"],
    "naverId": "1529651948",
    "address": "서울특별시 성동구 상원1길 15 1층, 2층"
  },
  {
    "latitude": "37.5418987",
    "longitude": "127.0606114",
    "name": "JIN2",
    "description": "커피와 향기가 있는 성수동 통유리 카페",
    "type": ["카페", "디저트"],
    "naverId": "1520534737",
    "address": "서울특별시 성동구 성수이로18길 31 1층"
  },
  {
    "latitude": "37.5461197",
    "longitude": "127.0470115",
    "name": "LAZZO",
    "description": "커피와 향기가 있는 성수동 통유리 카페",
    "type": ["맥주", "호프"],
    "naverId": "1912072181",
    "address": "서울특별시 성동구 왕십리로8길 21 지하1층 라쪼"
  },
  {
    "latitude": "37.5444425",
    "longitude": "127.0554581",
    "name": "스케줄 성수",
    "description": "커피와 향기가 있는 성수동 통유리 카페",
    "type": ["양식"],
    "naverId": "1481829719",
    "address": "서울특별시 성동구 아차산로 104 2층"
  },
  {
    "latitude": "37.5415748",
    "longitude": "127.0534199",
    "name": "버터컵",
    "description": "커피와 향기가 있는 성수동 통유리 카페",
    "type": ["카페", "디저트"],
    "naverId": "1125263756",
    "address": "서울특별시 성동구 성수이로7길 27 서울숲코오롱디지탈타워 105-2호"
  },
  {
    "latitude": "37.5463427",
    "longitude": "127.0456103",
    "name": "에토프커피 성수",
    "description": "커피와 향기가 있는 성수동 통유리 카페",
    "type": ["카페", "디저트"],
    "naverId": "1605963127",
    "address": "서울특별시 성동구 왕십리로8길 8 2층"
  },
  {
    "latitude": "37.546053",
    "longitude": "127.0456149",
    "name": "컴오프로스터스",
    "description": "커피와 향기가 있는 성수동 통유리 카페",
    "type": ["커피가공", "제조"],
    "naverId": "1043490498",
    "address": "서울특별시 성동구 왕십리로6길 7 1층"
  },
  {
    "latitude": "37.5411006",
    "longitude": "127.0493296",
    "name": "치즈포레스트",
    "description": "커피와 향기가 있는 성수동 통유리 카페",
    "type": ["샌드위치"],
    "naverId": "1197634235",
    "address": "서울특별시 성동구 뚝섬로3길 9 1층"
  },
  {
    "latitude": "37.538466",
    "longitude": "127.0555843",
    "name": "오푸",
    "description": "커피와 향기가 있는 성수동 통유리 카페",
    "type": ["카페", "디저트"],
    "naverId": "1127892000",
    "address": "서울특별시 성동구 뚝섬로 408-7 302호"
  },
  {
    "latitude": "37.5435273",
    "longitude": "127.0628272",
    "name": "슈퍼파인 스토어",
    "description": "커피와 향기가 있는 성수동 통유리 카페",
    "type": ["카페"],
    "naverId": "1570334391",
    "address": "서울특별시 성동구 성수이로22길 51-1 1층 101호"
  },
  {
    "latitude": "37.5492385",
    "longitude": "127.0544924",
    "name": "카페내셔널",
    "description": "커피와 향기가 있는 성수동 통유리 카페",
    "type": ["카페", "디저트"],
    "naverId": "1787128629",
    "address": "서울특별시 성동구 광나루로4가길 14 카페내셔널"
  },
  {
    "latitude": "37.5439386",
    "longitude": "127.0622187",
    "name": "제비뽑기",
    "description": "커피와 향기가 있는 성수동 통유리 카페",
    "type": ["칼국수", "만두"],
    "naverId": "1066672961",
    "address": "서울특별시 성동구 성수이로24길 38 센츄리프라자 1층 제비뽑기"
  },
  {
    "latitude": "37.549843",
    "longitude": "127.054022",
    "name": "더네온문",
    "description": "커피와 향기가 있는 성수동 통유리 카페",
    "type": ["카페", "디저트"],
    "naverId": "1096098237",
    "address": "서울특별시 성동구 광나루로4길 4-1"
  },
  {
    "latitude": "37.5502772",
    "longitude": "127.0503315",
    "name": "피카워크샵",
    "description": "커피와 향기가 있는 성수동 통유리 카페",
    "type": ["카페", "디저트"],
    "naverId": "1944708422",
    "address": "서울특별시 성동구 상원10길 23 1층"
  },
  {
    "latitude": "37.5506749",
    "longitude": "127.0456516",
    "name": "아뜰리에8",
    "description": "커피와 향기가 있는 성수동 통유리 카페",
    "type": ["카페", "디저트"],
    "naverId": "1637968063",
    "address": "서울특별시 성동구 왕십리로16길 13-1 아뜰리에8 빌딩 1층, 2층"
  },
  {
    "latitude": "37.5482536",
    "longitude": "127.054886",
    "name": "페를 perle",
    "description": "커피와 향기가 있는 성수동 통유리 카페",
    "type": ["카페", "디저트"],
    "naverId": "1362812488",
    "address": "서울특별시 성동구 광나루로2길 34 1층"
  },
  {
    "latitude": "37.5479436",
    "longitude": "127.063517",
    "name": "하이엔드라이",
    "description": "커피와 향기가 있는 성수동 통유리 카페",
    "type": ["카페"],
    "naverId": "1819306212",
    "address": "서울특별시 성동구 광나루로 302"
  },
  {
    "latitude": "37.5468287",
    "longitude": "127.0466256",
    "name": "비도커피",
    "description": "커피와 향기가 있는 성수동 통유리 카페",
    "type": ["카페", "디저트"],
    "naverId": "1670214092",
    "address": "서울특별시 성동구 왕십리로4길 24-7 2층"
  },
  {
    "latitude": "37.5404568",
    "longitude": "127.0615718",
    "name": "테이스트앤드테이스트 성수플래그십",
    "description": "커피와 향기가 있는 성수동 통유리 카페",
    "type": ["양식"],
    "naverId": "1707917109",
    "address": "서울특별시 성동구 연무장길 114 가동 1층"
  },
  {
    "latitude": "37.5417281",
    "longitude": "127.0566909",
    "name": "페이퍼 플레이트",
    "description": "커피와 향기가 있는 성수동 통유리 카페",
    "type": ["피자"],
    "naverId": "1683846629",
    "address": "서울특별시 성동구 성수이로14길 15 1층"
  },
  {
    "latitude": "37.5434226",
    "longitude": "127.0542854",
    "name": "레몬그라스",
    "description": "커피와 향기가 있는 성수동 통유리 카페",
    "type": ["태국음식"],
    "naverId": "1727881210",
    "address": "서울특별시 성동구 연무장길 41-26 1층"
  },
  {
    "latitude": "37.54005",
    "longitude": "127.0634979",
    "name": "사이이커피",
    "description": "커피와 향기가 있는 성수동 통유리 카페",
    "type": ["카페", "디저트"],
    "naverId": "1105101549",
    "address": "서울특별시 광진구 동일로18길 11"
  },
  {
    "latitude": "37.5411188",
    "longitude": "127.0647921",
    "name": "지속",
    "description": "사진찍기 좋은 건대 신상카페",
    "type": ["카페", "디저트"],
    "naverId": "1135678307",
    "address": "서울특별시 광진구 동일로20길 20 1층 지속"
  },
  {
    "latitude": "37.5411217",
    "longitude": "127.0661272",
    "name": "커먼그라운드",
    "description": "건대 마리모 파는 곳",
    "type": ["복합문화공간"],
    "naverId": "36469804",
    "address": "서울특별시 광진구 아차산로 200"
  },
  {
    "latitude": "37.5419016",
    "longitude": "127.0663703",
    "name": "만경상회 건대본점",
    "description": "건대 마리모 파는 곳",
    "type": ["요리주점"],
    "naverId": "37578264",
    "address": "서울특별시 광진구 동일로22길 40"
  },
  {
    "latitude": "37.54024",
    "longitude": "127.067886",
    "name": "더이퀼리브리엄 커피",
    "description": "깔끔하고 예쁜 카페",
    "type": ["카페"],
    "naverId": "1418441461",
    "address": "서울특별시 광진구 아차산로30길 7 3층"
  },
  {
    "latitude": "37.5359893",
    "longitude": "127.0634019",
    "name": "dayoff",
    "description": "깔끔하고 예쁜 카페",
    "type": ["카페", "디저트"],
    "naverId": "1590248179",
    "address": "서울특별시 광진구 동일로4길 43"
  },
  {
    "latitude": "37.5354811",
    "longitude": "127.0634738",
    "name": "카페 베이지크",
    "description": "깔끔하고 예쁜 카페",
    "type": ["카페"],
    "naverId": "1265214314",
    "address": "서울특별시 광진구 뚝섬로24길 21"
  },
  {
    "latitude": "37.5347904",
    "longitude": "127.064525",
    "name": "파드",
    "description": "깔끔하고 예쁜 카페",
    "type": ["카페", "디저트"],
    "naverId": "1248370833",
    "address": "서울특별시 광진구 뚝섬로22가길 60 PFAD 파드"
  },
  {
    "latitude": "37.5452917",
    "longitude": "127.0735129",
    "name": "환원당",
    "description": "깔끔하고 예쁜 카페",
    "type": ["카페", "디저트"],
    "naverId": "1854582204",
    "address": "서울특별시 광진구 능동로 166"
  },
  {
    "latitude": "37.5313753",
    "longitude": "127.0749535",
    "name": "브링미커피 자양점",
    "description": "자양동 귀여운 신상 카페 브링미 커피",
    "type": ["카페"],
    "naverId": "1042928545",
    "address": "서울특별시 광진구 자양번영로 19 1층"
  },
  {
    "latitude": "37.5458619",
    "longitude": "127.0844809",
    "name": "어린이대공원 반려견 놀이터",
    "description": "자양동 귀여운 신상 카페 브링미 커피",
    "type": ["반려견놀이터"],
    "naverId": "38696533",
    "address": "서울특별시 광진구 능동로 216"
  },
  {
    "latitude": "37.5338926",
    "longitude": "127.0753482",
    "name": "댓댓댓",
    "description": "자양동 귀여운 신상 카페 브링미 커피",
    "type": ["카페"],
    "naverId": "1767278017",
    "address": "서울특별시 광진구 자양번영로 47-13 1층 댓댓댓"
  },
  {
    "latitude": "37.5337702",
    "longitude": "127.0653378",
    "name": "아드프커피로스터스",
    "description": "자양동 귀여운 신상 카페 브링미 커피",
    "type": ["카페"],
    "naverId": "1416059309",
    "address": "서울특별시 광진구 능동로3다길 1 1층/지하"
  },
  {
    "latitude": "37.5446682",
    "longitude": "127.0663971",
    "name": "컨딩커피",
    "description": "알록달록 양갱이 머리에 남는 건대 카페",
    "type": ["카페", "디저트"],
    "naverId": "1336548884",
    "address": "서울특별시 광진구 아차산로21길 64 1층"
  },
  {
    "latitude": "37.5327596",
    "longitude": "127.0681986",
    "name": "도시곳간 본점",
    "description": "알록달록 양갱이 머리에 남는 건대 카페",
    "type": ["반찬가게"],
    "naverId": "1031419315",
    "address": "서울특별시 광진구 능동로 18 지하1층 도시곳간"
  },
  {
    "latitude": "37.5321394",
    "longitude": "127.0674838",
    "name": "누모 뚝섬유원지점",
    "description": "알록달록 양갱이 머리에 남는 건대 카페",
    "type": ["카페", "디저트"],
    "naverId": "1539876369",
    "address": "서울특별시 광진구 뚝섬로34길 67 광진트라팰리스 B동 105호"
  },
  {
    "latitude": "37.5371535",
    "longitude": "127.0689748",
    "name": "헬로뚜니",
    "description": "알록달록 양갱이 머리에 남는 건대 카페",
    "type": ["반려동물용품"],
    "naverId": "1660318126",
    "address": "서울특별시 광진구 능동로 69 자양호반써밋아브뉴프랑센트럴 상가 동 108호(자양동)"
  },
  {
    "latitude": "37.5374291",
    "longitude": "127.0682046",
    "name": "강아지고양이편의점 자양점",
    "description": "알록달록 양갱이 머리에 남는 건대 카페",
    "type": ["애견용품"],
    "naverId": "1257747002",
    "address": "서울특별시 광진구 뚝섬로31길 43 1층 1호"
  },
  {
    "latitude": "37.5313905",
    "longitude": "127.0760121",
    "name": "카페 더 유리",
    "description": "알록달록 양갱이 머리에 남는 건대 카페",
    "type": ["카페", "디저트"],
    "naverId": "1922774244",
    "address": "서울특별시 광진구 자양번영로4길 12 1층"
  },
  {
    "latitude": "37.5346771",
    "longitude": "127.0658837",
    "name": "정원들",
    "description": "알록달록 양갱이 머리에 남는 건대 카페",
    "type": ["카페", "디저트"],
    "naverId": "1243827079",
    "address": "서울특별시 광진구 뚝섬로26길 46 1층"
  },
  {
    "latitude": "37.5305266",
    "longitude": "127.0754493",
    "name": "카페 플랜",
    "description": "알록달록 양갱이 머리에 남는 건대 카페",
    "type": ["카페", "디저트"],
    "naverId": "1107041818",
    "address": "서울특별시 광진구 자양번영로2길 7"
  },
  {
    "latitude": "37.5374971",
    "longitude": "127.0682313",
    "name": "카페 꽃다방",
    "description": "알록달록 양갱이 머리에 남는 건대 카페",
    "type": ["카페", "디저트"],
    "naverId": "37873899",
    "address": "서울특별시 광진구 뚝섬로31길 43 1층 꽃다방"
  },
  {
    "latitude": "37.5309714",
    "longitude": "127.0734893",
    "name": "소낙",
    "description": "알록달록 양갱이 머리에 남는 건대 카페",
    "type": ["카페", "디저트"],
    "naverId": "1708151566",
    "address": "서울특별시 광진구 자양번영로1길 24 1층"
  },
  {
    "latitude": "37.5319095",
    "longitude": "127.0703894",
    "name": "이르",
    "description": "알록달록 양갱이 머리에 남는 건대 카페",
    "type": ["카페", "디저트"],
    "naverId": "1597572945",
    "address": "서울특별시 광진구 능동로4길 61 1층"
  },
  {
    "latitude": "37.5412459",
    "longitude": "127.0657883",
    "name": "인덱스숍",
    "description": "알록달록 양갱이 머리에 남는 건대 카페",
    "type": ["서점"],
    "naverId": "1975205745",
    "address": "서울특별시 광진구 아차산로 200 커먼그라운드 3F(나이키 건물 3F)"
  },
  {
    "latitude": "37.5411519",
    "longitude": "127.0691477",
    "name": "로컬 건대",
    "description": "알록달록 양갱이 머리에 남는 건대 카페",
    "type": ["카페", "디저트"],
    "naverId": "1503386201",
    "address": "서울특별시 광진구 동일로22길 89"
  },
  {
    "latitude": "37.5347815",
    "longitude": "127.0629673",
    "name": "부오이카페",
    "description": "알록달록 양갱이 머리에 남는 건대 카페",
    "type": ["테이크아웃커피"],
    "naverId": "1803171907",
    "address": "서울특별시 광진구 뚝섬로24길 40 1층"
  },
  {
    "latitude": "37.5322424",
    "longitude": "127.0784539",
    "name": "츄로' S Coffee&lce cream",
    "description": "알록달록 양갱이 머리에 남는 건대 카페",
    "type": ["카페", "디저트"],
    "naverId": "1105907655",
    "address": "서울특별시 광진구 뚝섬로 620 1층 츄로's"
  },
  {
    "latitude": "37.5347402",
    "longitude": "127.0782194",
    "name": "자양다방",
    "description": "알록달록 양갱이 머리에 남는 건대 카페",
    "type": ["카페", "디저트"],
    "naverId": "1245493141",
    "address": "서울특별시 광진구 자양로15길 100 자양다방"
  },
  {
    "latitude": "37.5383611",
    "longitude": "127.0679322",
    "name": "랭보",
    "description": "알록달록 양갱이 머리에 남는 건대 카페",
    "type": ["카페", "디저트"],
    "naverId": "1099800871",
    "address": "서울특별시 광진구 동일로18길 96 2층"
  },
  {
    "latitude": "37.5463345",
    "longitude": "127.0440042",
    "name": "목로정원",
    "description": "모카포트를 이용한 가정식 커피 목로다방",
    "type": ["카페", "디저트"],
    "naverId": "1155970418",
    "address": "서울특별시 성동구 서울숲2길 47 3층"
  },
  {
    "latitude": "37.547771",
    "longitude": "127.0438243",
    "name": "앳이즈",
    "description": "모카포트를 이용한 가정식 커피 목로다방",
    "type": ["카페", "디저트"],
    "naverId": "1070094057",
    "address": "서울특별시 성동구 왕십리로5길 19 1층 at ease"
  },
  {
    "latitude": "37.5472034",
    "longitude": "127.0400805",
    "name": "피키니키 라자냐",
    "description": "모카포트를 이용한 가정식 커피 목로다방",
    "type": ["양식"],
    "naverId": "1379554717",
    "address": "서울특별시 성동구 서울숲2길 14 1층, 피키니키 라자냐"
  },
  {
    "latitude": "37.5439165",
    "longitude": "127.044216",
    "name": "띠또분식",
    "description": "모카포트를 이용한 가정식 커피 목로다방",
    "type": ["떡볶이"],
    "naverId": "1825161067",
    "address": "서울특별시 성동구 왕십리로 83-21 디타워 서울 포레스트 B110호"
  },
  {
    "latitude": "37.5473304",
    "longitude": "127.0426302",
    "name": "파인와플",
    "description": "모카포트를 이용한 가정식 커피 목로다방",
    "type": ["카페", "디저트"],
    "naverId": "1621519953",
    "address": "서울특별시 성동구 서울숲4길 16-1 1층"
  },
  {
    "latitude": "37.5473916",
    "longitude": "127.0435504",
    "name": "하노이102",
    "description": "모카포트를 이용한 가정식 커피 목로다방",
    "type": ["베트남음식"],
    "naverId": "1926242423",
    "address": "서울특별시 성동구 서울숲6길 18"
  },
  {
    "latitude": "37.5471668",
    "longitude": "127.039784",
    "name": "웨스턴챕터",
    "description": "모카포트를 이용한 가정식 커피 목로다방",
    "type": ["카페", "디저트"],
    "naverId": "1653885354",
    "address": "서울특별시 성동구 서울숲2길 12-8 2층"
  },
  {
    "latitude": "37.5465108",
    "longitude": "127.0424585",
    "name": "야드 서울",
    "description": "모카포트를 이용한 가정식 커피 목로다방",
    "type": ["카페", "디저트"],
    "naverId": "1578584646",
    "address": "서울특별시 성동구 서울숲2길 36 2층"
  },
  {
    "latitude": "37.5461191",
    "longitude": "127.0432655",
    "name": "투데이즈이너프",
    "description": "모카포트를 이용한 가정식 커피 목로다방",
    "type": ["카페", "디저트"],
    "naverId": "1078138614",
    "address": "서울특별시 성동구 서울숲2길 44-13 지하1층"
  },
  {
    "latitude": "37.5475731",
    "longitude": "127.0397439",
    "name": "클레멘타인",
    "description": "모카포트를 이용한 가정식 커피 목로다방",
    "type": ["플라워카페"],
    "naverId": "1900288880",
    "address": "서울특별시 성동구 서울숲2길 5-1 1층"
  },
  {
    "latitude": "37.5475514",
    "longitude": "127.0401268",
    "name": "위스위츠 서울숲",
    "description": "모카포트를 이용한 가정식 커피 목로다방",
    "type": ["카페", "디저트"],
    "naverId": "1158988360",
    "address": "서울특별시 성동구 서울숲2길 11-12 1층"
  },
  {
    "latitude": "37.5464034",
    "longitude": "127.0437643",
    "name": "모므로살롱",
    "description": "무용 모든 예술을 즐길 수 있는 복합문화공간",
    "type": ["카페", "디저트"],
    "naverId": "1452955482",
    "address": "서울특별시 성동구 서울숲2길 45-1 3층"
  },
  {
    "latitude": "37.5472234",
    "longitude": "127.0442414",
    "name": "투데이즈 위켄드",
    "description": "무용 모든 예술을 즐길 수 있는 복합문화공간",
    "type": ["카페", "디저트"],
    "naverId": "1839018422",
    "address": "서울특별시 성동구 왕십리로5길 14-1 1층"
  },
  {
    "latitude": "37.547436",
    "longitude": "127.0427775",
    "name": "마일스톤 커피 성수점",
    "description": "무용 모든 예술을 즐길 수 있는 복합문화공간",
    "type": ["카페", "디저트"],
    "naverId": "1698816534",
    "address": "서울특별시 성동구 서울숲4길 15 1층"
  },
  {
    "latitude": "37.5479065",
    "longitude": "127.0429476",
    "name": "꼬모윤 서울숲점",
    "description": "무용 모든 예술을 즐길 수 있는 복합문화공간",
    "type": ["카페", "디저트"],
    "naverId": "1962021779",
    "address": "서울특별시 성동구 서울숲길 50 1층"
  },
  {
    "latitude": "37.5464132",
    "longitude": "127.0440699",
    "name": "뉴앳던 성수",
    "description": "무용 모든 예술을 즐길 수 있는 복합문화공간",
    "type": ["카페", "디저트"],
    "naverId": "1789793457",
    "address": "서울특별시 성동구 왕십리로5길 9-20 4층"
  },
  {
    "latitude": "37.539851",
    "longitude": "127.0476981",
    "name": "성수김밥 퍼니텅",
    "description": "무용 모든 예술을 즐길 수 있는 복합문화공간",
    "type": ["김밥"],
    "naverId": "1494561142",
    "address": "서울특별시 성동구 성덕정3길 10-1 1층 성수김밥 퍼니텅"
  },
  {
    "latitude": "37.5433853",
    "longitude": "127.0540916",
    "name": "아가젤라또 성수",
    "description": "무용 모든 예술을 즐길 수 있는 복합문화공간",
    "type": ["아이스크림"],
    "naverId": "1710015927",
    "address": "서울특별시 성동구 연무장길 41-19 지1층 B101호"
  },
  {
    "latitude": "37.5390219",
    "longitude": "127.0498827",
    "name": "하이라인",
    "description": "무용 모든 예술을 즐길 수 있는 복합문화공간",
    "type": ["카페", "디저트"],
    "naverId": "1194510469",
    "address": "서울특별시 성동구 성덕정9길 10 2층 오른쪽문"
  },
  {
    "latitude": "37.5444642",
    "longitude": "127.0645836",
    "name": "투달러스커피",
    "description": "무용 모든 예술을 즐길 수 있는 복합문화공간",
    "type": ["카페"],
    "naverId": "75758743",
    "address": "서울특별시 성동구 아차산로17길 26 규장각빌딩"
  },
  {
    "latitude": "37.5513865",
    "longitude": "127.0464454",
    "name": "알파카페",
    "description": "무용 모든 예술을 즐길 수 있는 복합문화공간",
    "type": ["카페", "디저트"],
    "naverId": "1388254057",
    "address": "서울특별시 성동구 광나루로 144"
  },
  {
    "latitude": "37.5457054",
    "longitude": "127.0466216",
    "name": "베러로스팅랩&쇼룸",
    "description": "무용 모든 예술을 즐길 수 있는 복합문화공간",
    "type": ["카페", "디저트"],
    "naverId": "754349082",
    "address": "서울특별시 성동구 왕십리로6길 18-1 1층"
  },
  {
    "latitude": "37.5484801",
    "longitude": "127.0604705",
    "name": "디스코너49",
    "description": "무용 모든 예술을 즐길 수 있는 복합문화공간",
    "type": ["양식"],
    "naverId": "1234335717",
    "address": "서울특별시 성동구 광나루로 275 세신빌딩 1층"
  },
  {
    "latitude": "37.5471789",
    "longitude": "127.0466518",
    "name": "로우커피스탠드",
    "description": "무용 모든 예술을 즐길 수 있는 복합문화공간",
    "type": ["카페"],
    "naverId": "1168698330",
    "address": "서울특별시 성동구 왕십리로4길 28-2 1층"
  },
  {
    "latitude": "37.5456706",
    "longitude": "127.0462931",
    "name": "해피캠퍼",
    "description": "무용 모든 예술을 즐길 수 있는 복합문화공간",
    "type": ["카페", "디저트"],
    "naverId": "1967654360",
    "address": "서울특별시 성동구 왕십리로4길 10-15 1층"
  },
  {
    "latitude": "37.5401649",
    "longitude": "127.0603971",
    "name": "보후밀",
    "description": "무용 모든 예술을 즐길 수 있는 복합문화공간",
    "type": ["카페", "디저트"],
    "naverId": "1300427933",
    "address": "서울특별시 성동구 뚝섬로17길 29"
  },
  {
    "latitude": "37.5371084",
    "longitude": "127.0510966",
    "name": "코런트",
    "description": "무용 모든 예술을 즐길 수 있는 복합문화공간",
    "type": ["카페", "디저트"],
    "naverId": "1832786909",
    "address": "서울특별시 성동구 둘레9나길 7 1층"
  },
  {
    "latitude": "37.5466928",
    "longitude": "127.0545324",
    "name": "피넛버터바나나",
    "description": "무용 모든 예술을 즐길 수 있는 복합문화공간",
    "type": ["카페", "디저트"],
    "naverId": "1136906451",
    "address": "서울특별시 성동구 아차산로7길 15-8 1층,2층"
  },
  {
    "latitude": "37.5475622",
    "longitude": "127.0544619",
    "name": "와이덴",
    "description": "무용 모든 예술을 즐길 수 있는 복합문화공간",
    "type": ["카페", "디저트"],
    "naverId": "1982767346",
    "address": "서울특별시 성동구 성수일로12길 34 1층 와이덴"
  },
  {
    "latitude": "37.5489258",
    "longitude": "127.0542874",
    "name": "올드너티 커피로스터스",
    "description": "무용 모든 예술을 즐길 수 있는 복합문화공간",
    "type": ["카페", "디저트"],
    "naverId": "1078949657",
    "address": "서울특별시 성동구 광나루로2길 23-1 1층"
  },
  {
    "latitude": "37.5397727",
    "longitude": "127.0561726",
    "name": "초당옥",
    "description": "무용 모든 예술을 즐길 수 있는 복합문화공간",
    "type": ["카페", "디저트"],
    "naverId": "1378452048",
    "address": "서울특별시 성동구 성수이로12길 8-1 1층"
  },
  {
    "latitude": "37.5417249",
    "longitude": "127.0568438",
    "name": "인덱스카라멜",
    "description": "생카라멜을 판매하는 수제 카라멜 전문점",
    "type": ["카페", "디저트"],
    "naverId": "1532726506",
    "address": "서울특별시 성동구 성수이로14길 14 1층 index caramel"
  },
  {
    "latitude": "37.5419767",
    "longitude": "127.0560466",
    "name": "오색칠",
    "description": "생카라멜을 판매하는 수제 카라멜 전문점",
    "type": ["카페", "디저트"],
    "naverId": "1896147371",
    "address": "서울특별시 성동구 성수이로 77 1층"
  },
  {
    "latitude": "37.546053",
    "longitude": "127.0456149",
    "name": "컴오프로스터스",
    "description": "생카라멜을 판매하는 수제 카라멜 전문점",
    "type": ["커피가공", "제조"],
    "naverId": "1043490498",
    "address": "서울특별시 성동구 왕십리로6길 7 1층"
  },
  {
    "latitude": "37.5413687",
    "longitude": "127.0613027",
    "name": "파로",
    "description": "생카라멜을 판매하는 수제 카라멜 전문점",
    "type": ["카페", "디저트"],
    "naverId": "1277030356",
    "address": "서울특별시 성동구 연무장17길 6 3층 파로"
  },
  {
    "latitude": "37.545962",
    "longitude": "127.0495139",
    "name": "페로몬",
    "description": "생카라멜을 판매하는 수제 카라멜 전문점",
    "type": ["카페", "디저트"],
    "naverId": "1780640722",
    "address": "서울특별시 성동구 상원2길 5 3층"
  },
  {
    "latitude": "37.5396126",
    "longitude": "127.061481",
    "name": "올데이휘낭시에 성수점",
    "description": "생카라멜을 판매하는 수제 카라멜 전문점",
    "type": ["카페", "디저트"],
    "naverId": "1070814255",
    "address": "서울특별시 성동구 성수이로16길 48 1층"
  },
  {
    "latitude": "37.5389408",
    "longitude": "127.0532019",
    "name": "베티버 성수",
    "description": "생카라멜을 판매하는 수제 카라멜 전문점",
    "type": ["카페", "디저트"],
    "naverId": "1383256753",
    "address": "서울특별시 성동구 성덕정11길 18 1층"
  },
  {
    "latitude": "37.5516824",
    "longitude": "127.0680175",
    "name": "셈블",
    "description": "생카라멜을 판매하는 수제 카라멜 전문점",
    "type": ["카페", "디저트"],
    "naverId": "1740914620",
    "address": "서울특별시 성동구 광나루로11길 45 1층"
  },
  {
    "latitude": "37.5494069",
    "longitude": "127.0528185",
    "name": "크레이트커피",
    "description": "생카라멜을 판매하는 수제 카라멜 전문점",
    "type": ["카페", "디저트"],
    "naverId": "1995065165",
    "address": "서울특별시 성동구 성수일로12가길 10"
  },
  {
    "latitude": "37.5434989",
    "longitude": "127.058054",
    "name": "마르코웤스",
    "description": "생카라멜을 판매하는 수제 카라멜 전문점",
    "type": ["카페", "디저트"],
    "naverId": "1498557231",
    "address": "서울특별시 성동구 아차산로 126 더리브세종타워 B1 B107"
  },
  {
    "latitude": "37.5392424",
    "longitude": "127.0540877",
    "name": "Bermuda music salon",
    "description": "생카라멜을 판매하는 수제 카라멜 전문점",
    "type": ["카페"],
    "naverId": "1389958659",
    "address": "서울특별시 성동구 뚝섬로 389 성수동빌딩 1층"
  },
  {
    "latitude": "37.5466698",
    "longitude": "127.0629975",
    "name": "커피사피엔스 성수우림점",
    "description": "생카라멜을 판매하는 수제 카라멜 전문점",
    "type": ["카페"],
    "naverId": "1824108106",
    "address": "서울특별시 성동구 광나루로6길 35 1층 115호 커피사피엔스성수우림점"
  },
  {
    "latitude": "37.5380411",
    "longitude": "127.0490522",
    "name": "한나 성수점",
    "description": "생카라멜을 판매하는 수제 카라멜 전문점",
    "type": ["카페", "디저트"],
    "naverId": "1452864260",
    "address": "서울특별시 성동구 둘레7길 15 1층"
  },
  {
    "latitude": "37.5435879",
    "longitude": "127.0512226",
    "name": "웜브라운",
    "description": "생카라멜을 판매하는 수제 카라멜 전문점",
    "type": ["카페", "디저트"],
    "naverId": "1734893193",
    "address": "서울특별시 성동구 연무장길 16-2 1층 WARM BRAUN"
  },
  {
    "latitude": "37.542477",
    "longitude": "127.0599206",
    "name": "RSG 성수",
    "description": "생카라멜을 판매하는 수제 카라멜 전문점",
    "type": ["카페", "디저트"],
    "naverId": "1279085531",
    "address": "서울특별시 성동구 연무장15길 11 C동 110호"
  },
  {
    "latitude": "37.5377551",
    "longitude": "127.0510107",
    "name": "villa.1990",
    "description": "생카라멜을 판매하는 수제 카라멜 전문점",
    "type": ["카페", "디저트"],
    "naverId": "1624530576",
    "address": "서울특별시 성동구 둘레9길 17 2층"
  },
  {
    "latitude": "37.5485037",
    "longitude": "127.0495867",
    "name": "얼스케이크베이크샵",
    "description": "생카라멜을 판매하는 수제 카라멜 전문점",
    "type": ["베이커리"],
    "naverId": "1873977601",
    "address": "서울특별시 성동구 상원6나길 7 1층"
  },
  {
    "latitude": "37.5386698",
    "longitude": "127.0538037",
    "name": "YMCA 바",
    "description": "생카라멜을 판매하는 수제 카라멜 전문점",
    "type": ["바(BAR)"],
    "naverId": "1819494468",
    "address": "서울특별시 성동구 성덕정15길 12 1층 YMCA"
  },
  {
    "latitude": "37.5414908",
    "longitude": "127.0483014",
    "name": "요커 서울숲점",
    "description": "생카라멜을 판매하는 수제 카라멜 전문점",
    "type": ["카페", "디저트"],
    "naverId": "1896666659",
    "address": "서울특별시 성동구 성수일로 9 1층 요커 서울숲점"
  },
  {
    "latitude": "37.5436565",
    "longitude": "127.0566125",
    "name": "맥파이앤타이거 성수티룸",
    "description": "생카라멜을 판매하는 수제 카라멜 전문점",
    "type": ["카페", "디저트"],
    "naverId": "1038370038",
    "address": "서울특별시 성동구 성수이로 97 5층"
  },
  {
    "latitude": "37.5463238",
    "longitude": "127.0490255",
    "name": "바이러닉 에스프레소바",
    "description": "생카라멜을 판매하는 수제 카라멜 전문점",
    "type": ["카페", "디저트"],
    "naverId": "1345861465",
    "address": "서울특별시 성동구 상원길 26 1층"
  },
  {
    "latitude": "37.537848",
    "longitude": "127.0521077",
    "name": "앵무새루이스",
    "description": "생카라멜을 판매하는 수제 카라멜 전문점",
    "type": ["카페", "디저트"],
    "naverId": "1568797034",
    "address": "서울특별시 성동구 성덕정길 78 3층"
  },
  {
    "latitude": "37.5489771",
    "longitude": "127.0656627",
    "name": "하츠커피",
    "description": "생카라멜을 판매하는 수제 카라멜 전문점",
    "type": ["카페", "디저트"],
    "naverId": "1537438139",
    "address": "서울특별시 성동구 광나루로11길 7"
  },
  {
    "latitude": "37.5494383",
    "longitude": "127.0652142",
    "name": "로우키",
    "description": "생카라멜을 판매하는 수제 카라멜 전문점",
    "type": ["카페", "디저트"],
    "naverId": "1565282768",
    "address": "서울특별시 성동구 송정6길 5"
  },
  {
    "latitude": "37.5436339",
    "longitude": "127.0510917",
    "name": "래뮤",
    "description": "생카라멜을 판매하는 수제 카라멜 전문점",
    "type": ["카페", "디저트"],
    "naverId": "1076715606",
    "address": "서울특별시 성동구 연무장길 14 2층(성수동1가)"
  },
  {
    "latitude": "37.551447",
    "longitude": "127.0469958",
    "name": "백야드빌더성수",
    "description": "생카라멜을 판매하는 수제 카라멜 전문점",
    "type": ["카페", "디저트"],
    "naverId": "1271468163",
    "address": "서울특별시 성동구 광나루로 152"
  },
  {
    "latitude": "37.529739",
    "longitude": "127.0807447",
    "name": "카페모디",
    "description": "생카라멜을 판매하는 수제 카라멜 전문점",
    "type": ["카페"],
    "naverId": "1919157352",
    "address": "서울특별시 광진구 뚝섬로54길 41-9 (자양동) 파란대문 [골목안쪽으로 쭉 들어오세요]"
  },
  {
    "latitude": "37.5383443",
    "longitude": "127.0750774",
    "name": "보리스카페",
    "description": "건대 쿠키가맛있는 애견동반 카페",
    "type": ["카페", "디저트"],
    "naverId": "1690309548",
    "address": "서울특별시 광진구 아차산로 290 1층"
  },
  {
    "latitude": "37.5369232",
    "longitude": "127.0617937",
    "name": "뚝섬로462",
    "description": "건대 쿠키가맛있는 애견동반 카페",
    "type": ["카페", "디저트"],
    "naverId": "1743160614",
    "address": "서울특별시 광진구 뚝섬로 462 지상 1층 1칸"
  },
  {
    "latitude": "37.5403362",
    "longitude": "127.0672369",
    "name": "리셋커피 아일랜드",
    "description": "건대 쿠키가맛있는 애견동반 카페",
    "type": ["카페", "디저트"],
    "naverId": "1637087338",
    "address": "서울특별시 광진구 동일로20길 68 1층 리셋커피아일랜드"
  },
  {
    "latitude": "37.5403811",
    "longitude": "127.0670985",
    "name": "옴브르",
    "description": "건대 쿠키가맛있는 애견동반 카페",
    "type": ["카페", "디저트"],
    "naverId": "1121497224",
    "address": "서울특별시 광진구 동일로20길 64 지하1층"
  },
  {
    "latitude": "37.5373833",
    "longitude": "127.0666237",
    "name": "고이장",
    "description": "건대 쿠키가맛있는 애견동반 카페",
    "type": ["요리주점"],
    "naverId": "1766137099",
    "address": "서울특별시 광진구 뚝섬로23길 60 1층 102호"
  }
]
